가게,주소,도로명주소,경도,위도
맥도날드 서울시청점,을지로1가 32,서울 중구 남대문로9길 51 1층,126.9794991,37.56681308
맥도날드 강남2호점,역삼동 822-2,서울 강남구 테헤란로 107 메디타워 2층,127.0287542,37.49868114
맥도날드 등촌DT점,등촌동 630,서울 강서구 양천로 546,126.8597668,37.55829591
맥도날드 강남삼성DT점,삼성동 113-7,서울 강남구 봉은사로 432,127.047323,37.51094431
맥도날드 양재SK DT점,양재동 81,서울 서초구 바우뫼로 178,127.0396153,37.47808718
맥도날드 청담DT점,청담동 87-3,서울 강남구 도산대로 407,127.0402712,37.52371464
맥도날드 신림점,신림동 1641-22,서울 관악구 신림로 310,126.9301927,37.48193994
맥도날드 서울둔촌DT점,둔촌동 517-2,서울 강동구 양재대로 1382,127.1372794,37.52933781
맥도날드 종암SK점,종암동 10-15,서울 성북구 종암로 58,127.036076,37.59552593
맥도날드 송파잠실DT점,잠실동 305-15,서울 송파구 도곡로 434,127.0769795,37.50438328
맥도날드 서울시흥DT점,시흥동 903-4,서울 금천구 시흥대로 184,126.9027425,37.450481
맥도날드 굽은다리역DT점,천호동 31-10,서울 강동구 양재대로 1587,127.1430024,37.54726321
맥도날드 석촌역점,송파동 84,서울 송파구 백제고분로 390,127.1091334,37.50601523
맥도날드 양평SK점,양평동3가 80-2,서울 영등포구 선유로 195,126.8935044,37.53104712
맥도날드 우장산DT점,화곡동 1026,서울 강서구 강서로 216,126.8374199,37.54510061
맥도날드 신사역,신사동 514-15,서울 강남구 도산대로 123 2층,127.0218989,37.51744987
맥도날드 잠실역점,신천동 7-25,서울 송파구 송파대로 558,127.0997453,37.51510735
맥도날드 서초GS점,서초동 1536-17,서울 서초구 반포대로 69,127.0096792,37.48647276
맥도날드 고척DT점,고척동 277-12,서울 구로구 경인로 393,126.8635192,37.49723709
맥도날드 신월DT점,신월동 199-3,서울 양천구 남부순환로 404,126.8308816,37.53142169
맥도날드 상계DT점,상계동 1022,서울 노원구 동일로 1612,127.0561789,37.67243366
맥도날드 양천구청DT점,신정동 323-20,서울 양천구 목동동로 71,126.8629602,37.51551001
맥도날드 노량진점,노량진동 100-1,서울 동작구 노량진로 158,126.9435407,37.51343071
맥도날드 서울번동DT점,번동 106,서울 강북구 월계로 191,127.0452631,37.62115252
맥도날드 명동점,명동1가 48-2,서울 중구 명동7길 8 1층,126.9845532,37.56417619
맥도날드 위례신도시점,장지동 896,서울 송파구 위례광장로 290 위례중앙푸르지오2단지 상가 1층 119~122호,127.1430629,37.47453767
맥도날드 구로디지털,구로동 197-21,서울 구로구 디지털로31길 12 태평양물산 1층,126.8948889,37.4853311
맥도날드 서울상암DMC점,상암동 1602,서울 마포구 월드컵북로 400,126.8898729,37.58048235
맥도날드 서울교대점,서초동 1674-5,서울 서초구 서초대로 316,127.016215,37.49406271
맥도날드 염창DT점,염창동 280-11,서울 강서구 공항대로71길 3,126.8715673,37.54765125
맥도날드 어린이대공원점,화양동 212,서울 광진구 광나루로 392,127.0731222,37.5473013
맥도날드 공덕점,도화동 559,서울 마포구 마포대로 53 마포트라펠리스 1층,126.9470544,37.54143147
맥도날드 연세대점,창천동 33-12,서울 서대문구 연세로 33,126.9367227,37.55859128
맥도날드 이수점,사당동 147-115,서울 동작구 사당로 300,126.9802824,37.48438038
맥도날드 신천점,잠실동 181-9,서울 송파구 올림픽로 108,127.0827652,37.51142631
맥도날드 여의도점,여의도동 23,서울 영등포구 국제금융로 10 IFC몰 B326호,126.9258982,37.52503376
맥도날드 보라매,신길동 505,서울 영등포구 여의대방로 145,126.9199977,37.50021551
맥도날드 영등포점,영등포동3가 10-4,서울 영등포구 경인로 855,126.9076429,37.51698555
맥도날드 삼성역점,삼성동 158-15,서울 강남구 삼성로92길 29 지하1층,127.0587818,37.5083183
맥도날드 미아DT점,미아동 682-12,서울 강북구 삼양로 158,127.0216997,37.61816689
맥도날드 종로3가점,종로3가 10,서울 종로구 종로 115,126.9696534,37.59548232
맥도날드 쌍문DT점,쌍문동 700,서울 도봉구 도봉로 541,127.0372007,37.6536273
맥도날드 양재점,양재동 24,서울 서초구 강남대로 213,127.0349059,37.4827359
맥도날드 이태원점,이태원동 56-21,서울 용산구 이태원로 142-1,126.9896922,37.53395517
맥도날드 신월남부DT점,신월동 525-1,서울 양천구 남부순환로 553,126.8388237,37.51960377
맥도날드 선릉점,역삼동 707-27,서울 강남구 테헤란로 326 I타워 103호,127.0470338,37.50354696
맥도날드 서초뱅뱅점,서초동 1338-20,서울 서초구 강남대로 305 현대렉시온 101호,127.0306416,37.49017687
맥도날드 수유점,번동 418-18,서울 강북구 도봉로 342,127.0261256,37.63803283
맥도날드 과학기술대점,공릉동 435-2,서울 노원구 공릉로 231,127.0761725,37.62975262
맥도날드 강남구청점,논현동 242-29,서울 강남구 선릉로 667,127.0413252,37.51627265
맥도날드 방배점,방배동 909-9,서울 서초구 방배로 81,126.9971132,37.48164926
맥도날드 학동역점,논현동 129-1,서울 강남구 논현로 667,127.0305206,37.51356807
맥도날드 전농점,전농동 295-96,서울 동대문구 전농로 146,127.0577812,37.57813911
맥도날드 망원점,망원동 377-19,서울 마포구 월드컵로 81,126.909727,37.55607146
맥도날드 연신내점,갈현동 456-28,서울 은평구 연서로 213,126.9192179,37.61763777
맥도날드 가락DT점,가락동 193-7,서울 송파구 동남로 196,127.1307988,37.49489251
맥도날드 숭실대점,상도동 505-5,서울 동작구 사당로 22,126.9568984,37.49510957
맥도날드 상일동점,상일동 502,서울 강동구 상일로6길 39,127.1753654,37.54979562
맥도날드 안국역,안국동 164-6,서울 종로구 율곡로 45,126.9843465,37.57631723
맥도날드 중랑점,상봉동 130-166,서울 중랑구 망우로 202 동성빌딩,127.0754735,37.59348525
맥도날드 신내,신내동 666,서울 중랑구 봉화산로 194 신아타운1층,127.0946741,37.60643739
맥도날드 장안사거리점,장안동 308-4,서울 동대문구 답십리로 291-1,127.0726483,37.57254364
맥도날드 한국외대점,이문동 305-151,서울 동대문구 휘경로 15,127.061894,37.59587838
맥도날드 홍제역점,홍제동 253-11,서울 서대문구 통일로 442-1,126.9446299,37.58866348
맥도날드 안암점,안암동5가 102-33,서울 성북구 고려대로24길 42,127.029265,37.58440453
맥도날드 서울역점,동자동 43-205,서울 중구 한강대로 405 110호,126.9703812,37.55590907
맥도날드 명지대점,남가좌동 324-3,서울 서대문구 거북골로 25,126.9247382,37.57993721
맥도날드 한티역,대치동 938-22,서울 강남구 도곡로 409 엠프리스빌딩,127.0551667,37.49736941
맥도날드 합정메세나폴리스점,서교동 490,서울 마포구 양화로 45 2층,126.9142006,37.55076126
맥도날드 방학역DT점,도봉동 620-25,서울 도봉구 도봉로 735,127.0432785,37.67010823
맥도날드 한양대점,행당동 31-7,서울 성동구 왕십리로 227,127.0419137,37.55722672
맥도날드 송정역점,공항동 45-38,서울 강서구 공항대로 21,126.809695,37.561752
맥도날드 대학로점,동숭동 1-34,서울 종로구 대학로 130,127.0021141,37.58288903
맥도날드 파리공원점,목동 908-25,서울 양천구 목동서로 45,126.8810268,37.53718763
맥도날드 명동2호점,회현동3가 1-5,서울 중구 퇴계로 116-1,126.9846427,37.56055149
맥도날드 압구정CGV점,신사동 603-2,"서울 강남구 논현로 848 지하1층, 1층",127.0287921,37.52457166
맥도날드 구의역점,자양동 216-11,서울 광진구 아차산로 376,127.0844865,37.53643277
맥도날드 목동점,신정동 899-6,서울 양천구 목동로 221,126.8637323,37.5281571
맥도날드 가산디지털점,가산동 50-3,서울 금천구 벚꽃로 298 대륭포스트6차 1층,126.8838628,37.48145519
맥도날드 중계역점,상계동 763-2,서울 노원구 동일로 1341 장우빌딩 1층,127.0620904,37.64833243
맥도날드 구산점,구산동 1-14,서울 은평구 연서로 131,126.91669,37.6106234
맥도날드 가산비지니스센터점,가산동 371-6,서울 금천구 가산디지털1로 165 1층,126.8810284,37.48022731
맥도날드 성균관대점,명륜2가 197-1,서울 종로구 창경궁로 241-1,126.9988518,37.58339565
맥도날드 신도림디큐브점,신도림동 692,서울 구로구 경인로 662 지하2층,126.8882079,37.5081329
맥도날드 삼선교점,동소문동1가 32-3,서울 성북구 동소문로 13 일화빌딩 1층,127.0075328,37.58940636
맥도날드 동묘점,창신동 290,서울 종로구 종로 339,127.0151232,37.57316302
맥도날드 미아역점,미아동 197-5,서울 강북구 도봉로 204,127.026192,37.62695664
맥도날드 은평이마트점,응암동 90-1,서울 은평구 은평로 111 8층,126.9202225,37.60038151
맥도날드 중앙대점,흑석동 221,서울 동작구 흑석로 84 R&D센터 지하1층,126.9587426,37.50506074
맥도날드 중계,중계동 359-14,서울 노원구 중계로 218,127.0759994,37.65084941
맥도날드 상봉이마트,망우동 506-1,서울 중랑구 상봉로 118,127.0936345,37.59647742
맥도날드 코엑스점,,서울 강남구 삼성동 159-9 지하1층 A102호,127.0588778,37.5102706
맥도날드 신도림테크노점,구로동 3-25,서울 구로구 새말로 97 1층,126.8901507,37.50706722
맥도날드 한신점,하계동 284,서울 노원구 한글비석로 57,127.0688345,37.63660314
맥도날드 마리오아울렛점,가산동 60-22,서울 금천구 디지털로 185 1관,126.8874635,37.47820784
맥도날드 성수이마트,성수동2가 333-16,서울 성동구 뚝섬로 379 3층 푸드코트,127.0535365,37.53996409
한국맥도날드 본사,공평동 70,서울 종로구 종로 51 종로타워 14층,126.9836138,37.57073171
한국 로날드맥도날드하우스,반포동 724-26,서울 서초구 사평대로55길 82-14 201호,127.0217768,37.50783424
맥도날드(길동) 대여소,,서울 강동구 길동 252-91,127.1455631,37.5360521
노량진동 맥도널드앞 대여소,노량진동 100-1,서울 동작구 노량진로 158,126.9435407,37.51343071
맥도날드 종로3가 개방화장실,종로3가 10,서울 종로구 종로 115,126.9696534,37.59548232
한국맥도널드 송정역점 개방화장실,공항동 45-38,서울 강서구 공항대로 21,126.809695,37.561752
맥도날드 연신내점 화장실,갈현동 456-28,서울 은평구 연서로 213,126.9192179,37.61763777
맥도날드 명지대점 개방화장실,남가좌동 324-3,서울 서대문구 거북골로 25,126.9247382,37.57993721
이수역9번출구(맥도날드) 대여소,,서울 동작구 사당동 147-115,126.9806628,37.4845561
맥도날드 연대점 개방화장실,창천동 33-12,서울 서대문구 연세로 33,126.9367227,37.55859128
청담동 맥도날드 옆(위치) 대여소,,서울 강남구 청담동 87-3,127.0402587,37.52373295
맥도날드 개방화장실,이태원동 56-20,서울 용산구 이태원로 136-13,126.9896774,37.53378302
맥도날드 상계점 앞 대여소,상계동 1022,서울 노원구 동일로 1652,127.055549,37.67573859
맥도날드 대학로 개방화장실,동숭동 1-34,서울 종로구 대학로 130,127.0021141,37.58288903
맥도날드 개방화장실,노량진동 100-1,서울 동작구 노량진로 158,126.9435407,37.51343071
삼선동 맥도날드 개방화장실,동소문동1가 32-3,서울 성북구 동소문로 13,127.0075328,37.58940636
성균관대입구사거리(맥도날드) 대여소,,서울 종로구 명륜2가 197-4,126.9989549,37.58337786
신한은행 365코너 방배역맥도널드,방배동 909-9,서울 서초구 방배로 81,126.9971132,37.48164926
공중전화 맥도널드앞동소문동,동소문동1가 32-2,서울 성북구 동소문로 15,127.0077336,37.5893839
공중전화 맥도날드중랑점앞,,서울 중랑구 상봉동 130-166,127.0754921,37.59344894
